[
    {
        "id": "101",
        "name": "The Coffee Spot",
        "address": "123 Coffee Lane",
        "city": "Bean City",
        "state": "CA",
        "postal_code": "90001",
        "stars": 4.5,
        "review_count": 180,
        "categories": [
            "Coffee & Tea",
            "Cafe"
        ],
        "hours": {
            "Monday": "8:00-18:00",
            "Tuesday": "8:00-18:00",
            "Wednesday": "8:00-18:00",
            "Thursday": "8:00-18:00",
            "Friday": "8:00-18:00",
            "Saturday": "9:00-17:00",
            "Sunday": "9:00-17:00"
        }
    },
    {
        "id": "102",
        "name": "Burger Palace",
        "address": "456 Main Street",
        "city": "Burgertown",
        "state": "TX",
        "postal_code": "73301",
        "stars": 3.8,
        "review_count": 250,
        "categories": [
            "Burgers",
            "Fast Food"
        ],
        "hours": {
            "Monday": "10:00-22:00",
            "Tuesday": "10:00-22:00",
            "Wednesday": "10:00-22:00",
            "Thursday": "10:00-22:00",
            "Friday": "10:00-23:00",
            "Saturday": "10:00-23:00",
            "Sunday": "11:00-21:00"
        }
    },
    {
        "id": "103",
        "name": "Taco Heaven",
        "address": "789 Fiesta Ave",
        "city": "Tacoland",
        "state": "AZ",
        "postal_code": "85001",
        "stars": 4.9,
        "review_count": 300,
        "categories": [
            "Mexican",
            "Tacos"
        ],
        "hours": {
            "Monday": "9:00-21:00",
            "Tuesday": "9:00-21:00",
            "Wednesday": "9:00-21:00",
            "Thursday": "9:00-21:00",
            "Friday": "9:00-22:00",
            "Saturday": "9:00-22:00",
            "Sunday": "10:00-20:00"
        }
    },
    {
        "id": "104",
        "name": "Pizza Planet",
        "address": "321 Slice Rd",
        "city": "Cheesetown",
        "state": "NY",
        "postal_code": "10001",
        "stars": 4.0,
        "review_count": 200,
        "categories": [
            "Pizza",
            "Italian"
        ],
        "hours": {
            "Monday": "11:00-23:00",
            "Tuesday": "11:00-23:00",
            "Wednesday": "11:00-23:00",
            "Thursday": "11:00-23:00",
            "Friday": "11:00-24:00",
            "Saturday": "11:00-24:00",
            "Sunday": "11:00-22:00"
        }
    },
    {
        "id": "105",
        "name": "Healthy Bites",
        "address": "654 Fresh Blvd",
        "city": "Greenville",
        "state": "WA",
        "postal_code": "98101",
        "stars": 4.3,
        "review_count": 220,
        "categories": [
            "Salads",
            "Healthy"
        ],
        "hours": {
            "Monday": "10:00-20:00",
            "Tuesday": "10:00-20:00",
            "Wednesday": "10:00-20:00",
            "Thursday": "10:00-20:00",
            "Friday": "10:00-21:00",
            "Saturday": "11:00-21:00",
            "Sunday": "11:00-19:00"
        }
    }
]